{
  "city": "Izmir",
  "currency": "TRY",
  "unit": "TL_per_sqm",
  "data_period": "2024-2025",
  "districts": [
    {
      "name": "Konak",
      "avg_price_per_sqm": 62000,
      "population": 370000,
      "lat": 38.4192,
      "lon": 27.1287,
      "earthquake_risk": "high",
      "pga": 0.35,
      "avg_building_age": 35,
      "transport_score": 9,
      "socioeconomic_level": 4,
      "price_range_min": 42000,
      "price_range_max": 95000,
      "neighborhoods": ["Alsancak", "Pasaport", "Basmane", "Guzelyali", "Hatay"]
    },
    {
      "name": "Bornova",
      "avg_price_per_sqm": 52000,
      "population": 450000,
      "lat": 38.4698,
      "lon": 27.2187,
      "earthquake_risk": "high",
      "pga": 0.32,
      "avg_building_age": 22,
      "transport_score": 8,
      "socioeconomic_level": 4,
      "price_range_min": 35000,
      "price_range_max": 80000,
      "neighborhoods": ["Bornova Merkez", "Evka-3", "Karsiyaka Yolu", "Egekent", "Kazimdirik"]
    },
    {
      "name": "Karsiyaka",
      "avg_price_per_sqm": 65000,
      "population": 340000,
      "lat": 38.4550,
      "lon": 27.1100,
      "earthquake_risk": "high",
      "pga": 0.34,
      "avg_building_age": 28,
      "transport_score": 8,
      "socioeconomic_level": 5,
      "price_range_min": 45000,
      "price_range_max": 100000,
      "neighborhoods": ["Karsiyaka Merkez", "Bostanli", "Cigli Yolu", "Mavibahce", "Atakent"]
    },
    {
      "name": "Buca",
      "avg_price_per_sqm": 40000,
      "population": 510000,
      "lat": 38.3883,
      "lon": 27.1750,
      "earthquake_risk": "high",
      "pga": 0.33,
      "avg_building_age": 25,
      "transport_score": 7,
      "socioeconomic_level": 3,
      "price_range_min": 26000,
      "price_range_max": 60000,
      "neighborhoods": ["Buca Merkez", "Sirinyer", "Goksu", "Tinar", "Adatepe"]
    },
    {
      "name": "Bayrakli",
      "avg_price_per_sqm": 48000,
      "population": 320000,
      "lat": 38.4614,
      "lon": 27.1656,
      "earthquake_risk": "high",
      "pga": 0.35,
      "avg_building_age": 20,
      "transport_score": 8,
      "socioeconomic_level": 3,
      "price_range_min": 32000,
      "price_range_max": 72000,
      "neighborhoods": ["Bayrakli Merkez", "Manavkuyu", "Smyrna", "Turan", "Onur"]
    },
    {
      "name": "Cigli",
      "avg_price_per_sqm": 38000,
      "population": 210000,
      "lat": 38.5003,
      "lon": 27.0606,
      "earthquake_risk": "medium",
      "pga": 0.28,
      "avg_building_age": 15,
      "transport_score": 6,
      "socioeconomic_level": 3,
      "price_range_min": 25000,
      "price_range_max": 58000,
      "neighborhoods": ["Cigli Merkez", "Evka-2", "Atakoy", "Sasalkent", "Harmandali"]
    },
    {
      "name": "Gaziemir",
      "avg_price_per_sqm": 45000,
      "population": 140000,
      "lat": 38.3172,
      "lon": 27.1328,
      "earthquake_risk": "medium",
      "pga": 0.28,
      "avg_building_age": 18,
      "transport_score": 7,
      "socioeconomic_level": 3,
      "price_range_min": 30000,
      "price_range_max": 68000,
      "neighborhoods": ["Gaziemir Merkez", "Sarnickoy", "Atikent", "Irmak", "Gazi"]
    },
    {
      "name": "Narlidere",
      "avg_price_per_sqm": 68000,
      "population": 80000,
      "lat": 38.3917,
      "lon": 27.0583,
      "earthquake_risk": "high",
      "pga": 0.33,
      "avg_building_age": 20,
      "transport_score": 6,
      "socioeconomic_level": 5,
      "price_range_min": 48000,
      "price_range_max": 105000,
      "neighborhoods": ["Narlidere Merkez", "Sahilevleri", "Limontepe", "Narbel", "Camlik"]
    },
    {
      "name": "Balcova",
      "avg_price_per_sqm": 58000,
      "population": 80000,
      "lat": 38.3881,
      "lon": 27.0444,
      "earthquake_risk": "high",
      "pga": 0.32,
      "avg_building_age": 22,
      "transport_score": 7,
      "socioeconomic_level": 4,
      "price_range_min": 40000,
      "price_range_max": 88000,
      "neighborhoods": ["Balcova Merkez", "Teleferik", "Termal", "Onur", "Bahcelerarasi"]
    },
    {
      "name": "Menemen",
      "avg_price_per_sqm": 25000,
      "population": 180000,
      "lat": 38.6103,
      "lon": 27.0697,
      "earthquake_risk": "medium",
      "pga": 0.26,
      "avg_building_age": 20,
      "transport_score": 5,
      "socioeconomic_level": 2,
      "price_range_min": 15000,
      "price_range_max": 38000,
      "neighborhoods": ["Menemen Merkez", "Kasimlar", "Villakent", "Ulukent", "Yeni"]
    },
    {
      "name": "Torbali",
      "avg_price_per_sqm": 28000,
      "population": 170000,
      "lat": 38.1594,
      "lon": 27.3636,
      "earthquake_risk": "medium",
      "pga": 0.25,
      "avg_building_age": 18,
      "transport_score": 4,
      "socioeconomic_level": 2,
      "price_range_min": 16000,
      "price_range_max": 42000,
      "neighborhoods": ["Torbali Merkez", "Yazibasi", "Pancar", "Ayrancilar", "Subasi"]
    },
    {
      "name": "Kemalpasa",
      "avg_price_per_sqm": 25000,
      "population": 110000,
      "lat": 38.4297,
      "lon": 27.4228,
      "earthquake_risk": "medium",
      "pga": 0.24,
      "avg_building_age": 18,
      "transport_score": 4,
      "socioeconomic_level": 2,
      "price_range_min": 15000,
      "price_range_max": 38000,
      "neighborhoods": ["Kemalpasa Merkez", "Armutlu", "Ulucak", "Bagkur", "Yeni"]
    },
    {
      "name": "Aliaga",
      "avg_price_per_sqm": 30000,
      "population": 85000,
      "lat": 38.8003,
      "lon": 26.9714,
      "earthquake_risk": "medium",
      "pga": 0.25,
      "avg_building_age": 18,
      "transport_score": 4,
      "socioeconomic_level": 3,
      "price_range_min": 18000,
      "price_range_max": 45000,
      "neighborhoods": ["Aliaga Merkez", "Yeni", "Ataturk", "Bozanada", "Cumhuriyet"]
    },
    {
      "name": "Bergama",
      "avg_price_per_sqm": 18000,
      "population": 105000,
      "lat": 39.1211,
      "lon": 27.1792,
      "earthquake_risk": "medium",
      "pga": 0.22,
      "avg_building_age": 28,
      "transport_score": 3,
      "socioeconomic_level": 2,
      "price_range_min": 10000,
      "price_range_max": 28000,
      "neighborhoods": ["Bergama Merkez", "Zafer", "Cumhuriyet", "Kursunlu", "Yeni"]
    },
    {
      "name": "Dikili",
      "avg_price_per_sqm": 28000,
      "population": 42000,
      "lat": 39.0722,
      "lon": 26.8889,
      "earthquake_risk": "medium",
      "pga": 0.24,
      "avg_building_age": 22,
      "transport_score": 3,
      "socioeconomic_level": 3,
      "price_range_min": 16000,
      "price_range_max": 42000,
      "neighborhoods": ["Dikili Merkez", "Gazipaşa", "Salihler", "Camlik", "Yeni"]
    },
    {
      "name": "Foca",
      "avg_price_per_sqm": 38000,
      "population": 32000,
      "lat": 38.6711,
      "lon": 26.7569,
      "earthquake_risk": "medium",
      "pga": 0.26,
      "avg_building_age": 25,
      "transport_score": 3,
      "socioeconomic_level": 3,
      "price_range_min": 25000,
      "price_range_max": 58000,
      "neighborhoods": ["Foca Merkez", "Yenifoca", "Kozbeyli", "Ildir", "Gerenköy"]
    },
    {
      "name": "Karaburun",
      "avg_price_per_sqm": 30000,
      "population": 10000,
      "lat": 38.6381,
      "lon": 26.5147,
      "earthquake_risk": "medium",
      "pga": 0.26,
      "avg_building_age": 28,
      "transport_score": 2,
      "socioeconomic_level": 2,
      "price_range_min": 18000,
      "price_range_max": 45000,
      "neighborhoods": ["Karaburun Merkez", "Mordogan", "Baliklıova", "Salman", "Parlak"]
    },
    {
      "name": "Cesme",
      "avg_price_per_sqm": 85000,
      "population": 45000,
      "lat": 38.3236,
      "lon": 26.3031,
      "earthquake_risk": "medium",
      "pga": 0.28,
      "avg_building_age": 18,
      "transport_score": 3,
      "socioeconomic_level": 5,
      "price_range_min": 60000,
      "price_range_max": 135000,
      "neighborhoods": ["Cesme Merkez", "Alacati", "Ilica", "Dalyan", "Ovacik"]
    },
    {
      "name": "Urla",
      "avg_price_per_sqm": 65000,
      "population": 70000,
      "lat": 38.3228,
      "lon": 26.7647,
      "earthquake_risk": "high",
      "pga": 0.30,
      "avg_building_age": 20,
      "transport_score": 4,
      "socioeconomic_level": 4,
      "price_range_min": 45000,
      "price_range_max": 100000,
      "neighborhoods": ["Urla Merkez", "Iskele", "Zeytinler", "Ozbek", "Demircili"]
    },
    {
      "name": "Seferihisar",
      "avg_price_per_sqm": 48000,
      "population": 48000,
      "lat": 38.1969,
      "lon": 26.8375,
      "earthquake_risk": "high",
      "pga": 0.30,
      "avg_building_age": 20,
      "transport_score": 3,
      "socioeconomic_level": 3,
      "price_range_min": 32000,
      "price_range_max": 72000,
      "neighborhoods": ["Seferihisar Merkez", "Sigacik", "Doganbey", "Eski", "Camlik"]
    },
    {
      "name": "Menderes",
      "avg_price_per_sqm": 30000,
      "population": 100000,
      "lat": 38.2536,
      "lon": 27.1331,
      "earthquake_risk": "medium",
      "pga": 0.27,
      "avg_building_age": 18,
      "transport_score": 4,
      "socioeconomic_level": 2,
      "price_range_min": 18000,
      "price_range_max": 45000,
      "neighborhoods": ["Menderes Merkez", "Goruece", "Develi", "Ozbas", "Cumali"]
    },
    {
      "name": "Tire",
      "avg_price_per_sqm": 18000,
      "population": 90000,
      "lat": 38.0878,
      "lon": 27.7331,
      "earthquake_risk": "medium",
      "pga": 0.22,
      "avg_building_age": 28,
      "transport_score": 3,
      "socioeconomic_level": 2,
      "price_range_min": 10000,
      "price_range_max": 28000,
      "neighborhoods": ["Tire Merkez", "Yeni", "Cumhuriyet", "Kursunlu", "Bayir"]
    },
    {
      "name": "Odemis",
      "avg_price_per_sqm": 18000,
      "population": 135000,
      "lat": 38.2236,
      "lon": 27.9706,
      "earthquake_risk": "medium",
      "pga": 0.22,
      "avg_building_age": 25,
      "transport_score": 3,
      "socioeconomic_level": 2,
      "price_range_min": 10000,
      "price_range_max": 28000,
      "neighborhoods": ["Odemis Merkez", "Birgi", "Cumhuriyet", "Bademli", "Zafer"]
    },
    {
      "name": "Bayindir",
      "avg_price_per_sqm": 16000,
      "population": 45000,
      "lat": 38.2189,
      "lon": 27.6517,
      "earthquake_risk": "medium",
      "pga": 0.23,
      "avg_building_age": 25,
      "transport_score": 3,
      "socioeconomic_level": 2,
      "price_range_min": 9000,
      "price_range_max": 25000,
      "neighborhoods": ["Bayindir Merkez", "Yeni", "Cumhuriyet", "Ergenli", "Cumaovasi"]
    },
    {
      "name": "Kiraz",
      "avg_price_per_sqm": 12000,
      "population": 45000,
      "lat": 38.2303,
      "lon": 28.2042,
      "earthquake_risk": "medium",
      "pga": 0.20,
      "avg_building_age": 28,
      "transport_score": 2,
      "socioeconomic_level": 2,
      "price_range_min": 6000,
      "price_range_max": 20000,
      "neighborhoods": ["Kiraz Merkez", "Yeni", "Cumhuriyet", "Umurlu", "Caylak"]
    },
    {
      "name": "Beydag",
      "avg_price_per_sqm": 10000,
      "population": 16000,
      "lat": 38.0800,
      "lon": 28.2050,
      "earthquake_risk": "medium",
      "pga": 0.20,
      "avg_building_age": 30,
      "transport_score": 2,
      "socioeconomic_level": 2,
      "price_range_min": 5000,
      "price_range_max": 16000,
      "neighborhoods": ["Beydag Merkez", "Yeni", "Cumhuriyet", "Dereli", "Cayli"]
    },
    {
      "name": "Selcuk",
      "avg_price_per_sqm": 35000,
      "population": 38000,
      "lat": 37.9511,
      "lon": 27.3686,
      "earthquake_risk": "medium",
      "pga": 0.25,
      "avg_building_age": 22,
      "transport_score": 4,
      "socioeconomic_level": 3,
      "price_range_min": 22000,
      "price_range_max": 52000,
      "neighborhoods": ["Selcuk Merkez", "Sirince", "Ataturk", "Isabey", "Zafer"]
    },
    {
      "name": "Guzelbahce",
      "avg_price_per_sqm": 72000,
      "population": 38000,
      "lat": 38.3678,
      "lon": 26.8978,
      "earthquake_risk": "high",
      "pga": 0.32,
      "avg_building_age": 16,
      "transport_score": 5,
      "socioeconomic_level": 5,
      "price_range_min": 50000,
      "price_range_max": 110000,
      "neighborhoods": ["Guzelbahce Merkez", "Yali", "Kahramandere", "Celebi", "Maltepe"]
    },
    {
      "name": "Karabaglar",
      "avg_price_per_sqm": 42000,
      "population": 480000,
      "lat": 38.3847,
      "lon": 27.1272,
      "earthquake_risk": "high",
      "pga": 0.34,
      "avg_building_age": 28,
      "transport_score": 7,
      "socioeconomic_level": 3,
      "price_range_min": 28000,
      "price_range_max": 62000,
      "neighborhoods": ["Karabaglar Merkez", "Uzundere", "Gunes", "Bozyaka", "Eskiizmir"]
    }
  ]
}
